[
    {
        "name": "Afghanistan",
        "iso3": "AFG",
        "iso2": "AF",
        "numeric_code": "004",
        "phone_code": "93",
        "capital": "Kabul",
        "region": "Asia",
        "latitude": 33.00000000,
        "longitude": 65.00000000
    },
    {
        "name": "Aland Islands",
        "iso3": "ALA",
        "iso2": "AX",
        "numeric_code": "248",
        "phone_code": "+358-18",
        "capital": "Mariehamn",
        "region": "Europe",
        "latitude": 60.11666700,
        "longitude": 19.90000000
    },
    {
        "name": "Albania",
        "iso3": "ALB",
        "iso2": "AL",
        "numeric_code": "008",
        "phone_code": "355",
        "capital": "Tirana",
        "region": "Europe",
        "latitude": 41.00000000,
        "longitude": 20.00000000
    },
    {
        "name": "Algeria",
        "iso3": "DZA",
        "iso2": "DZ",
        "numeric_code": "012",
        "phone_code": "213",
        "capital": "Algiers",
        "region": "Africa",
        "latitude": 28.00000000,
        "longitude": 3.00000000
    },
    {
        "name": "American Samoa",
        "iso3": "ASM",
        "iso2": "AS",
        "numeric_code": "016",
        "phone_code": "+1-684",
        "capital": "Pago Pago",
        "region": "Oceania",
        "latitude": -14.33333333,
        "longitude": -170.00000000
    },
    {
        "name": "Andorra",
        "iso3": "AND",
        "iso2": "AD",
        "numeric_code": "020",
        "phone_code": "376",
        "capital": "Andorra la Vella",
        "region": "Europe",
        "latitude": 42.50000000,
        "longitude": 1.50000000
    },
    {
        "name": "Angola",
        "iso3": "AGO",
        "iso2": "AO",
        "numeric_code": "024",
        "phone_code": "244",
        "capital": "Luanda",
        "region": "Africa",
        "latitude": -12.50000000,
        "longitude": 18.50000000
    },
    {
        "name": "Anguilla",
        "iso3": "AIA",
        "iso2": "AI",
        "numeric_code": "660",
        "phone_code": "+1-264",
        "capital": "The Valley",
        "region": "Americas",
        "latitude": 18.25000000,
        "longitude": -63.16666666
    },
    {
        "name": "Antarctica",
        "iso3": "ATA",
        "iso2": "AQ",
        "numeric_code": "010",
        "phone_code": "672",
        "capital": "",
        "region": "Polar",
        "latitude": -74.65000000,
        "longitude": 4.48000000
    },
    {
        "name": "Antigua and Barbuda",
        "iso3": "ATG",
        "iso2": "AG",
        "numeric_code": "028",
        "phone_code": "+1-268",
        "capital": "St. John's",
        "region": "Americas",
        "latitude": 17.05000000,
        "longitude": -61.80000000
    },
    {
        "name": "Argentina",
        "iso3": "ARG",
        "iso2": "AR",
        "numeric_code": "032",
        "phone_code": "54",
        "capital": "Buenos Aires",
        "region": "Americas",
        "latitude": -34.00000000,
        "longitude": -64.00000000
    },
    {
        "name": "Armenia",
        "iso3": "ARM",
        "iso2": "AM",
        "numeric_code": "051",
        "phone_code": "374",
        "capital": "Yerevan",
        "region": "Asia",
        "latitude": 40.00000000,
        "longitude": 45.00000000
    },
    {
        "name": "Aruba",
        "iso3": "ABW",
        "iso2": "AW",
        "numeric_code": "533",
        "phone_code": "297",
        "capital": "Oranjestad",
        "region": "Americas",
        "latitude": 12.50000000,
        "longitude": -69.96666666
    },
    {
        "name": "Australia",
        "iso3": "AUS",
        "iso2": "AU",
        "numeric_code": "036",
        "phone_code": "61",
        "capital": "Canberra",
        "region": "Oceania",
        "latitude": -27.00000000,
        "longitude": 133.00000000
    },
    {
        "name": "Austria",
        "iso3": "AUT",
        "iso2": "AT",
        "numeric_code": "040",
        "phone_code": "43",
        "capital": "Vienna",
        "region": "Europe",
        "latitude": 47.33333333,
        "longitude": 13.33333333
    },
    {
        "name": "Azerbaijan",
        "iso3": "AZE",
        "iso2": "AZ",
        "numeric_code": "031",
        "phone_code": "994",
        "capital": "Baku",
        "region": "Asia",
        "latitude": 40.50000000,
        "longitude": 47.50000000
    },
    {
        "name": "Bahrain",
        "iso3": "BHR",
        "iso2": "BH",
        "numeric_code": "048",
        "phone_code": "973",
        "capital": "Manama",
        "region": "Asia",
        "latitude": 26.00000000,
        "longitude": 50.55000000
    },
    {
        "name": "Bangladesh",
        "iso3": "BGD",
        "iso2": "BD",
        "numeric_code": "050",
        "phone_code": "880",
        "capital": "Dhaka",
        "region": "Asia",
        "latitude": 24.00000000,
        "longitude": 90.00000000
    },
    {
        "name": "Barbados",
        "iso3": "BRB",
        "iso2": "BB",
        "numeric_code": "052",
        "phone_code": "+1-246",
        "capital": "Bridgetown",
        "region": "Americas",
        "latitude": 13.16666666,
        "longitude": -59.53333333
    },
    {
        "name": "Belarus",
        "iso3": "BLR",
        "iso2": "BY",
        "numeric_code": "112",
        "phone_code": "375",
        "capital": "Minsk",
        "region": "Europe",
        "latitude": 53.00000000,
        "longitude": 28.00000000
    },
    {
        "name": "Belgium",
        "iso3": "BEL",
        "iso2": "BE",
        "numeric_code": "056",
        "phone_code": "32",
        "capital": "Brussels",
        "region": "Europe",
        "latitude": 50.83333333,
        "longitude": 4.00000000
    },
    {
        "name": "Belize",
        "iso3": "BLZ",
        "iso2": "BZ",
        "numeric_code": "084",
        "phone_code": "501",
        "capital": "Belmopan",
        "region": "Americas",
        "latitude": 17.25000000,
        "longitude": -88.75000000
    },
    {
        "name": "Benin",
        "iso3": "BEN",
        "iso2": "BJ",
        "numeric_code": "204",
        "phone_code": "229",
        "capital": "Porto-Novo",
        "region": "Africa",
        "latitude": 9.50000000,
        "longitude": 2.25000000
    },
    {
        "name": "Bermuda",
        "iso3": "BMU",
        "iso2": "BM",
        "numeric_code": "060",
        "phone_code": "+1-441",
        "capital": "Hamilton",
        "region": "Americas",
        "latitude": 32.33333333,
        "longitude": -64.75000000
    },
    {
        "name": "Bhutan",
        "iso3": "BTN",
        "iso2": "BT",
        "numeric_code": "064",
        "phone_code": "975",
        "capital": "Thimphu",
        "region": "Asia",
        "latitude": 27.50000000,
        "longitude": 90.50000000
    },
    {
        "name": "Bolivia",
        "iso3": "BOL",
        "iso2": "BO",
        "numeric_code": "068",
        "phone_code": "591",
        "capital": "Sucre",
        "region": "Americas",
        "latitude": -17.00000000,
        "longitude": -65.00000000
    },
    {
        "name": "Bonaire, Sint Eustatius and Saba",
        "iso3": "BES",
        "iso2": "BQ",
        "numeric_code": "535",
        "phone_code": "599",
        "capital": "Kralendijk",
        "region": "Americas",
        "latitude": 12.15000000,
        "longitude": -68.26666700
    },
    {
        "name": "Bosnia and Herzegovina",
        "iso3": "BIH",
        "iso2": "BA",
        "numeric_code": "070",
        "phone_code": "387",
        "capital": "Sarajevo",
        "region": "Europe",
        "latitude": 44.00000000,
        "longitude": 18.00000000
    },
    {
        "name": "Botswana",
        "iso3": "BWA",
        "iso2": "BW",
        "numeric_code": "072",
        "phone_code": "267",
        "capital": "Gaborone",
        "region": "Africa",
        "latitude": -22.00000000,
        "longitude": 24.00000000
    },
    {
        "name": "Bouvet Island",
        "iso3": "BVT",
        "iso2": "BV",
        "numeric_code": "074",
        "phone_code": "0055",
        "capital": "",
        "region": "Africa",
        "nationality": "Bouvet Island",
        "latitude": -54.43333333,
        "longitude": 3.40000000
    },
    {
        "name": "Brazil",
        "iso3": "BRA",
        "iso2": "BR",
        "numeric_code": "076",
        "phone_code": "55",
        "capital": "Brasilia",
        "region": "Americas",
        "latitude": -10.00000000,
        "longitude": -55.00000000
    },
    {
        "name": "British Indian Ocean Territory",
        "iso3": "IOT",
        "iso2": "IO",
        "numeric_code": "086",
        "phone_code": "246",
        "capital": "Diego Garcia",
        "region": "Africa",
        "latitude": -6.00000000,
        "longitude": 71.50000000
    },
    {
        "name": "Brunei",
        "iso3": "BRN",
        "iso2": "BN",
        "numeric_code": "096",
        "phone_code": "673",
        "capital": "Bandar Seri Begawan",
        "region": "Asia",
        "latitude": 4.50000000,
        "longitude": 114.66666666
    },
    {
        "name": "Bulgaria",
        "iso3": "BGR",
        "iso2": "BG",
        "numeric_code": "100",
        "phone_code": "359",
        "capital": "Sofia",
        "region": "Europe",
        "latitude": 43.00000000,
        "longitude": 25.00000000
    },
    {
        "name": "Burkina Faso",
        "iso3": "BFA",
        "iso2": "BF",
        "numeric_code": "854",
        "phone_code": "226",
        "capital": "Ouagadougou",
        "region": "Africa",
        "latitude": 13.00000000,
        "longitude": -2.00000000
    },
    {
        "name": "Burundi",
        "iso3": "BDI",
        "iso2": "BI",
        "numeric_code": "108",
        "phone_code": "257",
        "capital": "Bujumbura",
        "region": "Africa",
        "latitude": -3.50000000,
        "longitude": 30.00000000
    },
    {
        "name": "Cambodia",
        "iso3": "KHM",
        "iso2": "KH",
        "numeric_code": "116",
        "phone_code": "855",
        "capital": "Phnom Penh",
        "region": "Asia",
        "latitude": 13.00000000,
        "longitude": 105.00000000
    },
    {
        "name": "Cameroon",
        "iso3": "CMR",
        "iso2": "CM",
        "numeric_code": "120",
        "phone_code": "237",
        "capital": "Yaounde",
        "region": "Africa",
        "latitude": 6.00000000,
        "longitude": 12.00000000
    },
    {
        "name": "Canada",
        "iso3": "CAN",
        "iso2": "CA",
        "numeric_code": "124",
        "phone_code": "1",
        "capital": "Ottawa",
        "region": "Americas",
        "latitude": 60.00000000,
        "longitude": -95.00000000
    },
    {
        "name": "Cape Verde",
        "iso3": "CPV",
        "iso2": "CV",
        "numeric_code": "132",
        "phone_code": "238",
        "capital": "Praia",
        "region": "Africa",
        "latitude": 16.00000000,
        "longitude": -24.00000000
    },
    {
        "name": "Cayman Islands",
        "iso3": "CYM",
        "iso2": "KY",
        "numeric_code": "136",
        "phone_code": "+1-345",
        "capital": "George Town",
        "region": "Americas",
        "latitude": 19.50000000,
        "longitude": -80.50000000
    },
    {
        "name": "Central African Republic",
        "iso3": "CAF",
        "iso2": "CF",
        "numeric_code": "140",
        "phone_code": "236",
        "capital": "Bangui",
        "region": "Africa",
        "latitude": 7.00000000,
        "longitude": 21.00000000
    },
    {
        "name": "Chad",
        "iso3": "TCD",
        "iso2": "TD",
        "numeric_code": "148",
        "phone_code": "235",
        "capital": "N'Djamena",
        "region": "Africa",
        "latitude": 15.00000000,
        "longitude": 19.00000000
    },
    {
        "name": "Chile",
        "iso3": "CHL",
        "iso2": "CL",
        "numeric_code": "152",
        "phone_code": "56",
        "capital": "Santiago",
        "region": "Americas",
        "latitude": -30.00000000,
        "longitude": -71.00000000
    },
    {
        "name": "China",
        "iso3": "CHN",
        "iso2": "CN",
        "numeric_code": "156",
        "phone_code": "86",
        "capital": "Beijing",
        "region": "Asia",
        "latitude": 35.00000000,
        "longitude": 105.00000000
    },
    {
        "name": "Christmas Island",
        "iso3": "CXR",
        "iso2": "CX",
        "numeric_code": "162",
        "phone_code": "61",
        "capital": "Flying Fish Cove",
        "region": "Oceania",
        "latitude": -10.50000000,
        "longitude": 105.66666666
    },
    {
        "name": "Cocos (Keeling) Islands",
        "iso3": "CCK",
        "iso2": "CC",
        "numeric_code": "166",
        "phone_code": "61",
        "capital": "West Island",
        "region": "Oceania",
        "latitude": -12.50000000,
        "longitude": 96.83333333
    },
    {
        "name": "Colombia",
        "iso3": "COL",
        "iso2": "CO",
        "numeric_code": "170",
        "phone_code": "57",
        "capital": "Bogotá",
        "region": "Americas",
        "latitude": 4.00000000,
        "longitude": -72.00000000
    },
    {
        "name": "Comoros",
        "iso3": "COM",
        "iso2": "KM",
        "numeric_code": "174",
        "phone_code": "269",
        "capital": "Moroni",
        "region": "Africa",
        "latitude": -12.16666666,
        "longitude": 44.25000000
    },
    {
        "name": "Congo",
        "iso3": "COG",
        "iso2": "CG",
        "numeric_code": "178",
        "phone_code": "242",
        "capital": "Brazzaville",
        "region": "Africa",
        "latitude": -1.00000000,
        "longitude": 15.00000000
    },
    {
        "name": "Cook Islands",
        "iso3": "COK",
        "iso2": "CK",
        "numeric_code": "184",
        "phone_code": "682",
        "capital": "Avarua",
        "region": "Oceania",
        "latitude": -21.23333333,
        "longitude": -159.76666666
    },
    {
        "name": "Costa Rica",
        "iso3": "CRI",
        "iso2": "CR",
        "numeric_code": "188",
        "phone_code": "506",
        "capital": "San Jose",
        "region": "Americas",
        "latitude": 10.00000000,
        "longitude": -84.00000000
    },
    {
        "name": "Cote D'Ivoire (Ivory Coast)",
        "iso3": "CIV",
        "iso2": "CI",
        "numeric_code": "384",
        "phone_code": "225",
        "capital": "Yamoussoukro",
        "currency": "XOF",
        "currency_name": "West African CFA franc",
        "currency_symbol": "CFA",
        "tld": ".ci",
        "native": null,
        "region": "Africa",
        "latitude": 8.00000000,
        "longitude": -5.00000000
    },
    {
        "name": "Croatia",
        "iso3": "HRV",
        "iso2": "HR",
        "numeric_code": "191",
        "phone_code": "385",
        "capital": "Zagreb",
        "region": "Europe",
        "latitude": 45.16666666,
        "longitude": 15.50000000
    },
    {
        "name": "Cuba",
        "iso3": "CUB",
        "iso2": "CU",
        "numeric_code": "192",
        "phone_code": "53",
        "capital": "Havana",
        "region": "Americas",
        "latitude": 21.50000000,
        "longitude": -80.00000000
    },
    {
        "name": "Curaçao",
        "iso3": "CUW",
        "iso2": "CW",
        "numeric_code": "531",
        "phone_code": "599",
        "capital": "Willemstad",
        "region": "Americas",
        "latitude": 12.11666700,
        "longitude": -68.93333300
    },
    {
        "name": "Cyprus",
        "iso3": "CYP",
        "iso2": "CY",
        "numeric_code": "196",
        "phone_code": "357",
        "capital": "Nicosia",
        "region": "Europe",
        "latitude": 35.00000000,
        "longitude": 33.00000000
    },
    {
        "name": "Czech Republic",
        "iso3": "CZE",
        "iso2": "CZ",
        "numeric_code": "203",
        "phone_code": "420",
        "capital": "Prague",
        "region": "Europe",
        "latitude": 49.75000000,
        "longitude": 15.50000000
    },
    {
        "name": "Democratic Republic of the Congo",
        "iso3": "COD",
        "iso2": "CD",
        "numeric_code": "180",
        "phone_code": "243",
        "capital": "Kinshasa",
        "region": "Africa",
        "latitude": 0.00000000,
        "longitude": 25.00000000
    },
    {
        "name": "Denmark",
        "iso3": "DNK",
        "iso2": "DK",
        "numeric_code": "208",
        "phone_code": "45",
        "capital": "Copenhagen",
        "region": "Europe",
        "latitude": 56.00000000,
        "longitude": 10.00000000
    },
    {
        "name": "Djibouti",
        "iso3": "DJI",
        "iso2": "DJ",
        "numeric_code": "262",
        "phone_code": "253",
        "capital": "Djibouti",
        "region": "Africa",
        "latitude": 11.50000000,
        "longitude": 43.00000000
    },
    {
        "name": "Dominica",
        "iso3": "DMA",
        "iso2": "DM",
        "numeric_code": "212",
        "phone_code": "+1-767",
        "capital": "Roseau",
        "region": "Americas",
        "latitude": 15.41666666,
        "longitude": -61.33333333
    },
    {
        "name": "Dominican Republic",
        "iso3": "DOM",
        "iso2": "DO",
        "numeric_code": "214",
        "phone_code": "+1-809 and 1-829",
        "capital": "Santo Domingo",
        "region": "Americas",
        "latitude": 19.00000000,
        "longitude": -70.66666666
    },
    {
        "name": "Ecuador",
        "iso3": "ECU",
        "iso2": "EC",
        "numeric_code": "218",
        "phone_code": "593",
        "capital": "Quito",
        "region": "Americas",
        "latitude": -2.00000000,
        "longitude": -77.50000000
    },
    {
        "name": "Egypt",
        "iso3": "EGY",
        "iso2": "EG",
        "numeric_code": "818",
        "phone_code": "20",
        "capital": "Cairo",
        "region": "Africa",
        "latitude": 27.00000000,
        "longitude": 30.00000000
    },
    {
        "name": "El Salvador",
        "iso3": "SLV",
        "iso2": "SV",
        "numeric_code": "222",
        "phone_code": "503",
        "capital": "San Salvador",
        "region": "Americas",
        "latitude": 13.83333333,
        "longitude": -88.91666666
    },
    {
        "name": "Equatorial Guinea",
        "iso3": "GNQ",
        "iso2": "GQ",
        "numeric_code": "226",
        "phone_code": "240",
        "capital": "Malabo",
        "region": "Africa",
        "latitude": 2.00000000,
        "longitude": 10.00000000
    },
    {
        "name": "Eritrea",
        "iso3": "ERI",
        "iso2": "ER",
        "numeric_code": "232",
        "phone_code": "291",
        "capital": "Asmara",
        "region": "Africa",
        "latitude": 15.00000000,
        "longitude": 39.00000000
    },
    {
        "name": "Estonia",
        "iso3": "EST",
        "iso2": "EE",
        "numeric_code": "233",
        "phone_code": "372",
        "capital": "Tallinn",
        "region": "Europe",
        "latitude": 59.00000000,
        "longitude": 26.00000000
    },
    {
        "name": "Eswatini",
        "iso3": "SWZ",
        "iso2": "SZ",
        "numeric_code": "748",
        "phone_code": "268",
        "capital": "Mbabane",
        "region": "Africa",
        "latitude": -26.50000000,
        "longitude": 31.50000000
    },
    {
        "name": "Ethiopia",
        "iso3": "ETH",
        "iso2": "ET",
        "numeric_code": "231",
        "phone_code": "251",
        "capital": "Addis Ababa",
        "region": "Africa",
        "latitude": 8.00000000,
        "longitude": 38.00000000
    },
    {
        "name": "Falkland Islands",
        "iso3": "FLK",
        "iso2": "FK",
        "numeric_code": "238",
        "phone_code": "500",
        "capital": "Stanley",
        "region": "Americas",
        "latitude": -51.75000000,
        "longitude": -59.00000000
    },
    {
        "name": "Faroe Islands",
        "iso3": "FRO",
        "iso2": "FO",
        "numeric_code": "234",
        "phone_code": "298",
        "capital": "Torshavn",
        "region": "Europe",
        "latitude": 62.00000000,
        "longitude": -7.00000000
    },
    {
        "name": "Fiji Islands",
        "iso3": "FJI",
        "iso2": "FJ",
        "numeric_code": "242",
        "phone_code": "679",
        "capital": "Suva",
        "region": "Oceania",
        "latitude": -18.00000000,
        "longitude": 175.00000000
    },
    {
        "name": "Finland",
        "iso3": "FIN",
        "iso2": "FI",
        "numeric_code": "246",
        "phone_code": "358",
        "capital": "Helsinki",
        "region": "Europe",
        "latitude": 64.00000000,
        "longitude": 26.00000000
    },
    {
        "name": "France",
        "iso3": "FRA",
        "iso2": "FR",
        "numeric_code": "250",
        "phone_code": "33",
        "capital": "Paris",
        "region": "Europe",
        "latitude": 46.00000000,
        "longitude": 2.00000000
    },
    {
        "name": "French Guiana",
        "iso3": "GUF",
        "iso2": "GF",
        "numeric_code": "254",
        "phone_code": "594",
        "capital": "Cayenne",
        "region": "Americas",
        "latitude": 4.00000000,
        "longitude": -53.00000000
    },
    {
        "name": "French Polynesia",
        "iso3": "PYF",
        "iso2": "PF",
        "numeric_code": "258",
        "phone_code": "689",
        "capital": "Papeete",
        "region": "Oceania",
        "latitude": -15.00000000,
        "longitude": -140.00000000
    },
    {
        "name": "French Southern Territories",
        "iso3": "ATF",
        "iso2": "TF",
        "numeric_code": "260",
        "phone_code": "262",
        "capital": "Port-aux-Francais",
        "region": "Africa",
        "latitude": -49.25000000,
        "longitude": 69.16700000
    },
    {
        "name": "Gabon",
        "iso3": "GAB",
        "iso2": "GA",
        "numeric_code": "266",
        "phone_code": "241",
        "capital": "Libreville",
        "region": "Africa",
        "latitude": -1.00000000,
        "longitude": 11.75000000
    },
    {
        "name": "Gambia The",
        "iso3": "GMB",
        "iso2": "GM",
        "numeric_code": "270",
        "phone_code": "220",
        "capital": "Banjul",
        "region": "Africa",
        "latitude": 13.46666666,
        "longitude": -16.56666666
    },
    {
        "name": "Georgia",
        "iso3": "GEO",
        "iso2": "GE",
        "numeric_code": "268",
        "phone_code": "995",
        "capital": "Tbilisi",
        "region": "Asia",
        "latitude": 42.00000000,
        "longitude": 43.50000000
    },
    {
        "name": "Germany",
        "iso3": "DEU",
        "iso2": "DE",
        "numeric_code": "276",
        "phone_code": "49",
        "capital": "Berlin",
        "region": "Europe",
        "latitude": 51.00000000,
        "longitude": 9.00000000
    },
    {
        "name": "Ghana",
        "iso3": "GHA",
        "iso2": "GH",
        "numeric_code": "288",
        "phone_code": "233",
        "capital": "Accra",
        "region": "Africa",
        "latitude": 8.00000000,
        "longitude": -2.00000000
    },
    {
        "name": "Gibraltar",
        "iso3": "GIB",
        "iso2": "GI",
        "numeric_code": "292",
        "phone_code": "350",
        "capital": "Gibraltar",
        "region": "Europe",
        "latitude": 36.13333333,
        "longitude": -5.35000000
    },
    {
        "name": "Greece",
        "iso3": "GRC",
        "iso2": "GR",
        "numeric_code": "300",
        "phone_code": "30",
        "capital": "Athens",
        "region": "Europe",
        "latitude": 39.00000000,
        "longitude": 22.00000000
    },
    {
        "name": "Greenland",
        "iso3": "GRL",
        "iso2": "GL",
        "numeric_code": "304",
        "phone_code": "299",
        "capital": "Nuuk",
        "region": "Americas",
        "latitude": 72.00000000,
        "longitude": -40.00000000
    },
    {
        "name": "Grenada",
        "iso3": "GRD",
        "iso2": "GD",
        "numeric_code": "308",
        "phone_code": "+1-473",
        "capital": "St. George's",
        "region": "Americas",
        "latitude": 12.11666666,
        "longitude": -61.66666666
    },
    {
        "name": "Guadeloupe",
        "iso3": "GLP",
        "iso2": "GP",
        "numeric_code": "312",
        "phone_code": "590",
        "capital": "Basse-Terre",
        "region": "Americas",
        "latitude": 16.25000000,
        "longitude": -61.58333300
    },
    {
        "name": "Guam",
        "iso3": "GUM",
        "iso2": "GU",
        "numeric_code": "316",
        "phone_code": "+1-671",
        "capital": "Hagatna",
        "region": "Oceania",
        "latitude": 13.46666666,
        "longitude": 144.78333333
    },
    {
        "name": "Guatemala",
        "iso3": "GTM",
        "iso2": "GT",
        "numeric_code": "320",
        "phone_code": "502",
        "capital": "Guatemala City",
        "region": "Americas",
        "latitude": 15.50000000,
        "longitude": -90.25000000
    },
    {
        "name": "Guernsey and Alderney",
        "iso3": "GGY",
        "iso2": "GG",
        "numeric_code": "831",
        "phone_code": "+44-1481",
        "capital": "St Peter Port",
        "region": "Europe",
        "latitude": 49.46666666,
        "longitude": -2.58333333
    },
    {
        "name": "Guinea",
        "iso3": "GIN",
        "iso2": "GN",
        "numeric_code": "324",
        "phone_code": "224",
        "capital": "Conakry",
        "region": "Africa",
        "latitude": 11.00000000,
        "longitude": -10.00000000
    },
    {
        "name": "Guinea-Bissau",
        "iso3": "GNB",
        "iso2": "GW",
        "numeric_code": "624",
        "phone_code": "245",
        "capital": "Bissau",
        "region": "Africa",
        "latitude": 12.00000000,
        "longitude": -15.00000000
    },
    {
        "name": "Guyana",
        "iso3": "GUY",
        "iso2": "GY",
        "numeric_code": "328",
        "phone_code": "592",
        "capital": "Georgetown",
        "region": "Americas",
        "latitude": 5.00000000,
        "longitude": -59.00000000
    },
    {
        "name": "Haiti",
        "iso3": "HTI",
        "iso2": "HT",
        "numeric_code": "332",
        "phone_code": "509",
        "capital": "Port-au-Prince",
        "region": "Americas",
        "latitude": 19.00000000,
        "longitude": -72.41666666
    },
    {
        "name": "Heard Island and McDonald Islands",
        "iso3": "HMD",
        "iso2": "HM",
        "numeric_code": "334",
        "phone_code": "672",
        "capital": "",
        "region": "Africa",
        "nationality": "Heard Island or McDonald Islands",
        "latitude": -53.10000000,
        "longitude": 72.51666666
    },
    {
        "name": "Honduras",
        "iso3": "HND",
        "iso2": "HN",
        "numeric_code": "340",
        "phone_code": "504",
        "capital": "Tegucigalpa",
        "region": "Americas",
        "latitude": 15.00000000,
        "longitude": -86.50000000
    },
    {
        "name": "Hong Kong S.A.R.",
        "iso3": "HKG",
        "iso2": "HK",
        "numeric_code": "344",
        "phone_code": "852",
        "capital": "Hong Kong",
        "region": "Asia",
        "latitude": 22.25000000,
        "longitude": 114.16666666
    },
    {
        "name": "Hungary",
        "iso3": "HUN",
        "iso2": "HU",
        "numeric_code": "348",
        "phone_code": "36",
        "capital": "Budapest",
        "region": "Europe",
        "latitude": 47.00000000,
        "longitude": 20.00000000
    },
    {
        "name": "Iceland",
        "iso3": "ISL",
        "iso2": "IS",
        "numeric_code": "352",
        "phone_code": "354",
        "capital": "Reykjavik",
        "region": "Europe",
        "latitude": 65.00000000,
        "longitude": -18.00000000
    },
    {
        "name": "India",
        "iso3": "IND",
        "iso2": "IN",
        "numeric_code": "356",
        "phone_code": "91",
        "capital": "New Delhi",
        "region": "Asia",
        "latitude": 20.00000000,
        "longitude": 77.00000000
    },
    {
        "name": "Indonesia",
        "iso3": "IDN",
        "iso2": "ID",
        "numeric_code": "360",
        "phone_code": "62",
        "capital": "Jakarta",
        "region": "Asia",
        "latitude": -5.00000000,
        "longitude": 120.00000000
    },
    {
        "name": "Iran",
        "iso3": "IRN",
        "iso2": "IR",
        "numeric_code": "364",
        "phone_code": "98",
        "capital": "Tehran",
        "region": "Asia",
        "latitude": 32.00000000,
        "longitude": 53.00000000
    },
    {
        "name": "Iraq",
        "iso3": "IRQ",
        "iso2": "IQ",
        "numeric_code": "368",
        "phone_code": "964",
        "capital": "Baghdad",
        "region": "Asia",
        "latitude": 33.00000000,
        "longitude": 44.00000000
    },
    {
        "name": "Ireland",
        "iso3": "IRL",
        "iso2": "IE",
        "numeric_code": "372",
        "phone_code": "353",
        "capital": "Dublin",
        "region": "Europe",
        "latitude": 53.00000000,
        "longitude": -8.00000000
    },
    {
        "name": "Israel",
        "iso3": "ISR",
        "iso2": "IL",
        "numeric_code": "376",
        "phone_code": "972",
        "capital": "Jerusalem",
        "region": "Asia",
        "latitude": 31.50000000,
        "longitude": 34.75000000
    },
    {
        "name": "Italy",
        "iso3": "ITA",
        "iso2": "IT",
        "numeric_code": "380",
        "phone_code": "39",
        "capital": "Rome",
        "region": "Europe",
        "latitude": 42.83333333,
        "longitude": 12.83333333
    },
    {
        "name": "Jamaica",
        "iso3": "JAM",
        "iso2": "JM",
        "numeric_code": "388",
        "phone_code": "+1-876",
        "capital": "Kingston",
        "region": "Americas",
        "latitude": 18.25000000,
        "longitude": -77.50000000
    },
    {
        "name": "Japan",
        "iso3": "JPN",
        "iso2": "JP",
        "numeric_code": "392",
        "phone_code": "81",
        "capital": "Tokyo",
        "region": "Asia",
        "latitude": 36.00000000,
        "longitude": 138.00000000
    },
    {
        "name": "Jersey",
        "iso3": "JEY",
        "iso2": "JE",
        "numeric_code": "832",
        "phone_code": "+44-1534",
        "capital": "Saint Helier",
        "region": "Europe",
        "latitude": 49.25000000,
        "longitude": -2.16666666
    },
    {
        "name": "Jordan",
        "iso3": "JOR",
        "iso2": "JO",
        "numeric_code": "400",
        "phone_code": "962",
        "capital": "Amman",
        "region": "Asia",
        "latitude": 31.00000000,
        "longitude": 36.00000000
    },
    {
        "name": "Kazakhstan",
        "iso3": "KAZ",
        "iso2": "KZ",
        "numeric_code": "398",
        "phone_code": "7",
        "capital": "Astana",
        "region": "Asia",
        "latitude": 48.00000000,
        "longitude": 68.00000000
    },
    {
        "name": "Kenya",
        "iso3": "KEN",
        "iso2": "KE",
        "numeric_code": "404",
        "phone_code": "254",
        "capital": "Nairobi",
        "region": "Africa",
        "latitude": 1.00000000,
        "longitude": 38.00000000
    },
    {
        "name": "Kiribati",
        "iso3": "KIR",
        "iso2": "KI",
        "numeric_code": "296",
        "phone_code": "686",
        "capital": "Tarawa",
        "region": "Oceania",
        "latitude": 1.41666666,
        "longitude": 173.00000000
    },
    {
        "name": "Kosovo",
        "iso3": "XKX",
        "iso2": "XK",
        "numeric_code": "926",
        "phone_code": "383",
        "capital": "Pristina",
        "region": "Europe",
        "latitude": 42.56129090,
        "longitude": 20.34030350
    },
    {
        "name": "Kuwait",
        "iso3": "KWT",
        "iso2": "KW",
        "numeric_code": "414",
        "phone_code": "965",
        "capital": "Kuwait City",
        "region": "Asia",
        "latitude": 29.50000000,
        "longitude": 45.75000000
    },
    {
        "name": "Kyrgyzstan",
        "iso3": "KGZ",
        "iso2": "KG",
        "numeric_code": "417",
        "phone_code": "996",
        "capital": "Bishkek",
        "region": "Asia",
        "latitude": 41.00000000,
        "longitude": 75.00000000
    },
    {
        "name": "Laos",
        "iso3": "LAO",
        "iso2": "LA",
        "numeric_code": "418",
        "phone_code": "856",
        "capital": "Vientiane",
        "region": "Asia",
        "latitude": 18.00000000,
        "longitude": 105.00000000
    },
    {
        "name": "Latvia",
        "iso3": "LVA",
        "iso2": "LV",
        "numeric_code": "428",
        "phone_code": "371",
        "capital": "Riga",
        "region": "Europe",
        "latitude": 57.00000000,
        "longitude": 25.00000000
    },
    {
        "name": "Lebanon",
        "iso3": "LBN",
        "iso2": "LB",
        "numeric_code": "422",
        "phone_code": "961",
        "capital": "Beirut",
        "region": "Asia",
        "latitude": 33.83333333,
        "longitude": 35.83333333
    },
    {
        "name": "Lesotho",
        "iso3": "LSO",
        "iso2": "LS",
        "numeric_code": "426",
        "phone_code": "266",
        "capital": "Maseru",
        "region": "Africa",
        "latitude": -29.50000000,
        "longitude": 28.50000000
    },
    {
        "name": "Liberia",
        "iso3": "LBR",
        "iso2": "LR",
        "numeric_code": "430",
        "phone_code": "231",
        "capital": "Monrovia",
        "region": "Africa",
        "latitude": 6.50000000,
        "longitude": -9.50000000
    },
    {
        "name": "Libya",
        "iso3": "LBY",
        "iso2": "LY",
        "numeric_code": "434",
        "phone_code": "218",
        "capital": "Tripolis",
        "region": "Africa",
        "latitude": 25.00000000,
        "longitude": 17.00000000
    },
    {
        "name": "Liechtenstein",
        "iso3": "LIE",
        "iso2": "LI",
        "numeric_code": "438",
        "phone_code": "423",
        "capital": "Vaduz",
        "region": "Europe",
        "latitude": 47.26666666,
        "longitude": 9.53333333
    },
    {
        "name": "Lithuania",
        "iso3": "LTU",
        "iso2": "LT",
        "numeric_code": "440",
        "phone_code": "370",
        "capital": "Vilnius",
        "region": "Europe",
        "latitude": 56.00000000,
        "longitude": 24.00000000
    },
    {
        "name": "Luxembourg",
        "iso3": "LUX",
        "iso2": "LU",
        "numeric_code": "442",
        "phone_code": "352",
        "capital": "Luxembourg",
        "region": "Europe",
        "latitude": 49.75000000,
        "longitude": 6.16666666
    },
    {
        "name": "Macau S.A.R.",
        "iso3": "MAC",
        "iso2": "MO",
        "numeric_code": "446",
        "phone_code": "853",
        "capital": "Macao",
        "region": "Asia",
        "latitude": 22.16666666,
        "longitude": 113.55000000
    },
    {
        "name": "Madagascar",
        "iso3": "MDG",
        "iso2": "MG",
        "numeric_code": "450",
        "phone_code": "261",
        "capital": "Antananarivo",
        "region": "Africa",
        "latitude": -20.00000000,
        "longitude": 47.00000000
    },
    {
        "name": "Malawi",
        "iso3": "MWI",
        "iso2": "MW",
        "numeric_code": "454",
        "phone_code": "265",
        "capital": "Lilongwe",
        "region": "Africa",
        "latitude": -13.50000000,
        "longitude": 34.00000000
    },
    {
        "name": "Malaysia",
        "iso3": "MYS",
        "iso2": "MY",
        "numeric_code": "458",
        "phone_code": "60",
        "capital": "Kuala Lumpur",
        "region": "Asia",
        "latitude": 2.50000000,
        "longitude": 112.50000000
    },
    {
        "name": "Maldives",
        "iso3": "MDV",
        "iso2": "MV",
        "numeric_code": "462",
        "phone_code": "960",
        "capital": "Male",
        "region": "Asia",
        "latitude": 3.25000000,
        "longitude": 73.00000000
    },
    {
        "name": "Mali",
        "iso3": "MLI",
        "iso2": "ML",
        "numeric_code": "466",
        "phone_code": "223",
        "capital": "Bamako",
        "region": "Africa",
        "latitude": 17.00000000,
        "longitude": -4.00000000
    },
    {
        "name": "Malta",
        "iso3": "MLT",
        "iso2": "MT",
        "numeric_code": "470",
        "phone_code": "356",
        "capital": "Valletta",
        "region": "Europe",
        "latitude": 35.83333333,
        "longitude": 14.58333333
    },
    {
        "name": "Man (Isle of)",
        "iso3": "IMN",
        "iso2": "IM",
        "numeric_code": "833",
        "phone_code": "+44-1624",
        "capital": "Douglas, Isle of Man",
        "region": "Europe",
        "latitude": 54.25000000,
        "longitude": -4.50000000
    },
    {
        "name": "Marshall Islands",
        "iso3": "MHL",
        "iso2": "MH",
        "numeric_code": "584",
        "phone_code": "692",
        "capital": "Majuro",
        "region": "Oceania",
        "latitude": 9.00000000,
        "longitude": 168.00000000
    },
    {
        "name": "Martinique",
        "iso3": "MTQ",
        "iso2": "MQ",
        "numeric_code": "474",
        "phone_code": "596",
        "capital": "Fort-de-France",
        "region": "Americas",
        "latitude": 14.66666700,
        "longitude": -61.00000000
    },
    {
        "name": "Mauritania",
        "iso3": "MRT",
        "iso2": "MR",
        "numeric_code": "478",
        "phone_code": "222",
        "capital": "Nouakchott",
        "region": "Africa",
        "latitude": 20.00000000,
        "longitude": -12.00000000
    },
    {
        "name": "Mauritius",
        "iso3": "MUS",
        "iso2": "MU",
        "numeric_code": "480",
        "phone_code": "230",
        "capital": "Port Louis",
        "region": "Africa",
        "latitude": -20.28333333,
        "longitude": 57.55000000
    },
    {
        "name": "Mayotte",
        "iso3": "MYT",
        "iso2": "YT",
        "numeric_code": "175",
        "phone_code": "262",
        "capital": "Mamoudzou",
        "region": "Africa",
        "latitude": -12.83333333,
        "longitude": 45.16666666
    },
    {
        "name": "Mexico",
        "iso3": "MEX",
        "iso2": "MX",
        "numeric_code": "484",
        "phone_code": "52",
        "capital": "Ciudad de México",
        "region": "Americas",
        "latitude": 23.00000000,
        "longitude": -102.00000000
    },
    {
        "name": "Micronesia",
        "iso3": "FSM",
        "iso2": "FM",
        "numeric_code": "583",
        "phone_code": "691",
        "capital": "Palikir",
        "region": "Oceania",
        "latitude": 6.91666666,
        "longitude": 158.25000000
    },
    {
        "name": "Moldova",
        "iso3": "MDA",
        "iso2": "MD",
        "numeric_code": "498",
        "phone_code": "373",
        "capital": "Chisinau",
        "region": "Europe",
        "latitude": 47.00000000,
        "longitude": 29.00000000
    },
    {
        "name": "Monaco",
        "iso3": "MCO",
        "iso2": "MC",
        "numeric_code": "492",
        "phone_code": "377",
        "capital": "Monaco",
        "region": "Europe",
        "latitude": 43.73333333,
        "longitude": 7.40000000
    },
    {
        "name": "Mongolia",
        "iso3": "MNG",
        "iso2": "MN",
        "numeric_code": "496",
        "phone_code": "976",
        "capital": "Ulan Bator",
        "region": "Asia",
        "latitude": 46.00000000,
        "longitude": 105.00000000
    },
    {
        "name": "Montenegro",
        "iso3": "MNE",
        "iso2": "ME",
        "numeric_code": "499",
        "phone_code": "382",
        "capital": "Podgorica",
        "region": "Europe",
        "latitude": 42.50000000,
        "longitude": 19.30000000
    },
    {
        "name": "Montserrat",
        "iso3": "MSR",
        "iso2": "MS",
        "numeric_code": "500",
        "phone_code": "+1-664",
        "capital": "Plymouth",
        "region": "Americas",
        "latitude": 16.75000000,
        "longitude": -62.20000000
    },
    {
        "name": "Morocco",
        "iso3": "MAR",
        "iso2": "MA",
        "numeric_code": "504",
        "phone_code": "212",
        "capital": "Rabat",
        "region": "Africa",
        "latitude": 32.00000000,
        "longitude": -5.00000000
    },
    {
        "name": "Mozambique",
        "iso3": "MOZ",
        "iso2": "MZ",
        "numeric_code": "508",
        "phone_code": "258",
        "capital": "Maputo",
        "region": "Africa",
        "latitude": -18.25000000,
        "longitude": 35.00000000
    },
    {
        "name": "Myanmar",
        "iso3": "MMR",
        "iso2": "MM",
        "numeric_code": "104",
        "phone_code": "95",
        "capital": "Nay Pyi Taw",
        "region": "Asia",
        "latitude": 22.00000000,
        "longitude": 98.00000000
    },
    {
        "name": "Namibia",
        "iso3": "NAM",
        "iso2": "NA",
        "numeric_code": "516",
        "phone_code": "264",
        "capital": "Windhoek",
        "region": "Africa",
        "latitude": -22.00000000,
        "longitude": 17.00000000
    },
    {
        "name": "Nauru",
        "iso3": "NRU",
        "iso2": "NR",
        "numeric_code": "520",
        "phone_code": "674",
        "capital": "Yaren",
        "region": "Oceania",
        "latitude": -0.53333333,
        "longitude": 166.91666666
    },
    {
        "name": "Nepal",
        "iso3": "NPL",
        "iso2": "NP",
        "numeric_code": "524",
        "phone_code": "977",
        "capital": "Kathmandu",
        "region": "Asia",
        "latitude": 28.00000000,
        "longitude": 84.00000000
    },
    {
        "name": "Netherlands",
        "iso3": "NLD",
        "iso2": "NL",
        "numeric_code": "528",
        "phone_code": "31",
        "capital": "Amsterdam",
        "region": "Europe",
        "latitude": 52.50000000,
        "longitude": 5.75000000
    },
    {
        "name": "New Caledonia",
        "iso3": "NCL",
        "iso2": "NC",
        "numeric_code": "540",
        "phone_code": "687",
        "capital": "Noumea",
        "region": "Oceania",
        "latitude": -21.50000000,
        "longitude": 165.50000000
    },
    {
        "name": "New Zealand",
        "iso3": "NZL",
        "iso2": "NZ",
        "numeric_code": "554",
        "phone_code": "64",
        "capital": "Wellington",
        "region": "Oceania",
        "latitude": -41.00000000,
        "longitude": 174.00000000
    },
    {
        "name": "Nicaragua",
        "iso3": "NIC",
        "iso2": "NI",
        "numeric_code": "558",
        "phone_code": "505",
        "capital": "Managua",
        "region": "Americas",
        "latitude": 13.00000000,
        "longitude": -85.00000000
    },
    {
        "name": "Niger",
        "iso3": "NER",
        "iso2": "NE",
        "numeric_code": "562",
        "phone_code": "227",
        "capital": "Niamey",
        "region": "Africa",
        "latitude": 16.00000000,
        "longitude": 8.00000000
    },
    {
        "name": "Nigeria",
        "iso3": "NGA",
        "iso2": "NG",
        "numeric_code": "566",
        "phone_code": "234",
        "capital": "Abuja",
        "region": "Africa",
        "latitude": 10.00000000,
        "longitude": 8.00000000
    },
    {
        "name": "Niue",
        "iso3": "NIU",
        "iso2": "NU",
        "numeric_code": "570",
        "phone_code": "683",
        "capital": "Alofi",
        "region": "Oceania",
        "latitude": -19.03333333,
        "longitude": -169.86666666
    },
    {
        "name": "Norfolk Island",
        "iso3": "NFK",
        "iso2": "NF",
        "numeric_code": "574",
        "phone_code": "672",
        "capital": "Kingston",
        "region": "Oceania",
        "latitude": -29.03333333,
        "longitude": 167.95000000
    },
    {
        "name": "North Korea",
        "iso3": "PRK",
        "iso2": "KP",
        "numeric_code": "408",
        "phone_code": "850",
        "capital": "Pyongyang",
        "region": "Asia",
        "latitude": 40.00000000,
        "longitude": 127.00000000
    },
    {
        "name": "North Macedonia",
        "iso3": "MKD",
        "iso2": "MK",
        "numeric_code": "807",
        "phone_code": "389",
        "capital": "Skopje",
        "region": "Europe",
        "latitude": 41.83333333,
        "longitude": 22.00000000
    },
    {
        "name": "Northern Mariana Islands",
        "iso3": "MNP",
        "iso2": "MP",
        "numeric_code": "580",
        "phone_code": "+1-670",
        "capital": "Saipan",
        "region": "Oceania",
        "latitude": 15.20000000,
        "longitude": 145.75000000
    },
    {
        "name": "Norway",
        "iso3": "NOR",
        "iso2": "NO",
        "numeric_code": "578",
        "phone_code": "47",
        "capital": "Oslo",
        "region": "Europe",
        "latitude": 62.00000000,
        "longitude": 10.00000000
    },
    {
        "name": "Oman",
        "iso3": "OMN",
        "iso2": "OM",
        "numeric_code": "512",
        "phone_code": "968",
        "capital": "Muscat",
        "region": "Asia",
        "latitude": 21.00000000,
        "longitude": 57.00000000
    },
    {
        "name": "Pakistan",
        "iso3": "PAK",
        "iso2": "PK",
        "numeric_code": "586",
        "phone_code": "92",
        "capital": "Islamabad",
        "region": "Asia",
        "latitude": 30.00000000,
        "longitude": 70.00000000
    },
    {
        "name": "Palau",
        "iso3": "PLW",
        "iso2": "PW",
        "numeric_code": "585",
        "phone_code": "680",
        "capital": "Melekeok",
        "region": "Oceania",
        "latitude": 7.50000000,
        "longitude": 134.50000000
    },
    {
        "name": "Palestinian Territory Occupied",
        "iso3": "PSE",
        "iso2": "PS",
        "numeric_code": "275",
        "phone_code": "970",
        "capital": "East Jerusalem",
        "region": "Asia",
        "latitude": 31.90000000,
        "longitude": 35.20000000
    },
    {
        "name": "Panama",
        "iso3": "PAN",
        "iso2": "PA",
        "numeric_code": "591",
        "phone_code": "507",
        "capital": "Panama City",
        "region": "Americas",
        "latitude": 9.00000000,
        "longitude": -80.00000000
    },
    {
        "name": "Papua New Guinea",
        "iso3": "PNG",
        "iso2": "PG",
        "numeric_code": "598",
        "phone_code": "675",
        "capital": "Port Moresby",
        "region": "Oceania",
        "latitude": -6.00000000,
        "longitude": 147.00000000
    },
    {
        "name": "Paraguay",
        "iso3": "PRY",
        "iso2": "PY",
        "numeric_code": "600",
        "phone_code": "595",
        "capital": "Asuncion",
        "region": "Americas",
        "latitude": -23.00000000,
        "longitude": -58.00000000
    },
    {
        "name": "Peru",
        "iso3": "PER",
        "iso2": "PE",
        "numeric_code": "604",
        "phone_code": "51",
        "capital": "Lima",
        "region": "Americas",
        "latitude": -10.00000000,
        "longitude": -76.00000000
    },
    {
        "name": "Philippines",
        "iso3": "PHL",
        "iso2": "PH",
        "numeric_code": "608",
        "phone_code": "63",
        "capital": "Manila",
        "region": "Asia",
        "latitude": 13.00000000,
        "longitude": 122.00000000
    },
    {
        "name": "Pitcairn Island",
        "iso3": "PCN",
        "iso2": "PN",
        "numeric_code": "612",
        "phone_code": "870",
        "capital": "Adamstown",
        "region": "Oceania",
        "latitude": -25.06666666,
        "longitude": -130.10000000
    },
    {
        "name": "Poland",
        "iso3": "POL",
        "iso2": "PL",
        "numeric_code": "616",
        "phone_code": "48",
        "capital": "Warsaw",
        "region": "Europe",
        "latitude": 52.00000000,
        "longitude": 20.00000000
    },
    {
        "name": "Portugal",
        "iso3": "PRT",
        "iso2": "PT",
        "numeric_code": "620",
        "phone_code": "351",
        "capital": "Lisbon",
        "region": "Europe",
        "latitude": 39.50000000,
        "longitude": -8.00000000
    },
    {
        "name": "Puerto Rico",
        "iso3": "PRI",
        "iso2": "PR",
        "numeric_code": "630",
        "phone_code": "+1-787 and 1-939",
        "capital": "San Juan",
        "region": "Americas",
        "latitude": 18.25000000,
        "longitude": -66.50000000
    },
    {
        "name": "Qatar",
        "iso3": "QAT",
        "iso2": "QA",
        "numeric_code": "634",
        "phone_code": "974",
        "capital": "Doha",
        "region": "Asia",
        "latitude": 25.50000000,
        "longitude": 51.25000000
    },
    {
        "name": "Reunion",
        "iso3": "REU",
        "iso2": "RE",
        "numeric_code": "638",
        "phone_code": "262",
        "capital": "Saint-Denis",
        "region": "Africa",
        "latitude": -21.15000000,
        "longitude": 55.50000000
    },
    {
        "name": "Romania",
        "iso3": "ROU",
        "iso2": "RO",
        "numeric_code": "642",
        "phone_code": "40",
        "capital": "Bucharest",
        "region": "Europe",
        "latitude": 46.00000000,
        "longitude": 25.00000000
    },
    {
        "name": "Russia",
        "iso3": "RUS",
        "iso2": "RU",
        "numeric_code": "643",
        "phone_code": "7",
        "capital": "Moscow",
        "region": "Europe",
        "latitude": 60.00000000,
        "longitude": 100.00000000
    },
    {
        "name": "Rwanda",
        "iso3": "RWA",
        "iso2": "RW",
        "numeric_code": "646",
        "phone_code": "250",
        "capital": "Kigali",
        "region": "Africa",
        "latitude": -2.00000000,
        "longitude": 30.00000000
    },
    {
        "name": "Saint Helena",
        "iso3": "SHN",
        "iso2": "SH",
        "numeric_code": "654",
        "phone_code": "290",
        "capital": "Jamestown",
        "region": "Africa",
        "latitude": -15.95000000,
        "longitude": -5.70000000
    },
    {
        "name": "Saint Kitts and Nevis",
        "iso3": "KNA",
        "iso2": "KN",
        "numeric_code": "659",
        "phone_code": "+1-869",
        "capital": "Basseterre",
        "region": "Americas",
        "latitude": 17.33333333,
        "longitude": -62.75000000
    },
    {
        "name": "Saint Lucia",
        "iso3": "LCA",
        "iso2": "LC",
        "numeric_code": "662",
        "phone_code": "+1-758",
        "capital": "Castries",
        "region": "Americas",
        "latitude": 13.88333333,
        "longitude": -60.96666666
    },
    {
        "name": "Saint Pierre and Miquelon",
        "iso3": "SPM",
        "iso2": "PM",
        "numeric_code": "666",
        "phone_code": "508",
        "capital": "Saint-Pierre",
        "region": "Americas",
        "latitude": 46.83333333,
        "longitude": -56.33333333
    },
    {
        "name": "Saint Vincent and the Grenadines",
        "iso3": "VCT",
        "iso2": "VC",
        "numeric_code": "670",
        "phone_code": "+1-784",
        "capital": "Kingstown",
        "region": "Americas",
        "latitude": 13.25000000,
        "longitude": -61.20000000
    },
    {
        "name": "Saint-Barthelemy",
        "iso3": "BLM",
        "iso2": "BL",
        "numeric_code": "652",
        "phone_code": "590",
        "capital": "Gustavia",
        "region": "Americas",
        "latitude": 18.50000000,
        "longitude": -63.41666666
    },
    {
        "name": "Saint-Martin (French part)",
        "iso3": "MAF",
        "iso2": "MF",
        "numeric_code": "663",
        "phone_code": "590",
        "capital": "Marigot",
        "region": "Americas",
        "latitude": 18.08333333,
        "longitude": -63.95000000
    },
    {
        "name": "Samoa",
        "iso3": "WSM",
        "iso2": "WS",
        "numeric_code": "882",
        "phone_code": "685",
        "capital": "Apia",
        "region": "Oceania",
        "latitude": -13.58333333,
        "longitude": -172.33333333
    },
    {
        "name": "San Marino",
        "iso3": "SMR",
        "iso2": "SM",
        "numeric_code": "674",
        "phone_code": "378",
        "capital": "San Marino",
        "region": "Europe",
        "latitude": 43.76666666,
        "longitude": 12.41666666
    },
    {
        "name": "Sao Tome and Principe",
        "iso3": "STP",
        "iso2": "ST",
        "numeric_code": "678",
        "phone_code": "239",
        "capital": "Sao Tome",
        "region": "Africa",
        "latitude": 1.00000000,
        "longitude": 7.00000000
    },
    {
        "name": "Saudi Arabia",
        "iso3": "SAU",
        "iso2": "SA",
        "numeric_code": "682",
        "phone_code": "966",
        "capital": "Riyadh",
        "region": "Asia",
        "latitude": 25.00000000,
        "longitude": 45.00000000
    },
    {
        "name": "Senegal",
        "iso3": "SEN",
        "iso2": "SN",
        "numeric_code": "686",
        "phone_code": "221",
        "capital": "Dakar",
        "region": "Africa",
        "latitude": 14.00000000,
        "longitude": -14.00000000
    },
    {
        "name": "Serbia",
        "iso3": "SRB",
        "iso2": "RS",
        "numeric_code": "688",
        "phone_code": "381",
        "capital": "Belgrade",
        "region": "Europe",
        "latitude": 44.00000000,
        "longitude": 21.00000000
    },
    {
        "name": "Seychelles",
        "iso3": "SYC",
        "iso2": "SC",
        "numeric_code": "690",
        "phone_code": "248",
        "capital": "Victoria",
        "region": "Africa",
        "latitude": -4.58333333,
        "longitude": 55.66666666
    },
    {
        "name": "Sierra Leone",
        "iso3": "SLE",
        "iso2": "SL",
        "numeric_code": "694",
        "phone_code": "232",
        "capital": "Freetown",
        "region": "Africa",
        "latitude": 8.50000000,
        "longitude": -11.50000000
    },
    {
        "name": "Singapore",
        "iso3": "SGP",
        "iso2": "SG",
        "numeric_code": "702",
        "phone_code": "65",
        "capital": "Singapur",
        "region": "Asia",
        "latitude": 1.36666666,
        "longitude": 103.80000000
    },
    {
        "name": "Sint Maarten (Dutch part)",
        "iso3": "SXM",
        "iso2": "SX",
        "numeric_code": "534",
        "phone_code": "1721",
        "capital": "Philipsburg",
        "region": "Americas",
        "latitude": 18.03333300,
        "longitude": -63.05000000
    },
    {
        "name": "Slovakia",
        "iso3": "SVK",
        "iso2": "SK",
        "numeric_code": "703",
        "phone_code": "421",
        "capital": "Bratislava",
        "region": "Europe",
        "latitude": 48.66666666,
        "longitude": 19.50000000
    },
    {
        "name": "Slovenia",
        "iso3": "SVN",
        "iso2": "SI",
        "numeric_code": "705",
        "phone_code": "386",
        "capital": "Ljubljana",
        "region": "Europe",
        "latitude": 46.11666666,
        "longitude": 14.81666666
    },
    {
        "name": "Solomon Islands",
        "iso3": "SLB",
        "iso2": "SB",
        "numeric_code": "090",
        "phone_code": "677",
        "capital": "Honiara",
        "region": "Oceania",
        "latitude": -8.00000000,
        "longitude": 159.00000000
    },
    {
        "name": "Somalia",
        "iso3": "SOM",
        "iso2": "SO",
        "numeric_code": "706",
        "phone_code": "252",
        "capital": "Mogadishu",
        "region": "Africa",
        "latitude": 10.00000000,
        "longitude": 49.00000000
    },
    {
        "name": "South Africa",
        "iso3": "ZAF",
        "iso2": "ZA",
        "numeric_code": "710",
        "phone_code": "27",
        "capital": "Pretoria",
        "region": "Africa",
        "latitude": -29.00000000,
        "longitude": 24.00000000
    },
    {
        "name": "South Georgia",
        "iso3": "SGS",
        "iso2": "GS",
        "numeric_code": "239",
        "phone_code": "500",
        "capital": "Grytviken",
        "region": "Americas",
        "latitude": -54.50000000,
        "longitude": -37.00000000
    },
    {
        "name": "South Korea",
        "iso3": "KOR",
        "iso2": "KR",
        "numeric_code": "410",
        "phone_code": "82",
        "capital": "Seoul",
        "region": "Asia",
        "latitude": 37.00000000,
        "longitude": 127.50000000
    },
    {
        "name": "South Sudan",
        "iso3": "SSD",
        "iso2": "SS",
        "numeric_code": "728",
        "phone_code": "211",
        "capital": "Juba",
        "region": "Africa",
        "latitude": 7.00000000,
        "longitude": 30.00000000
    },
    {
        "name": "Spain",
        "iso3": "ESP",
        "iso2": "ES",
        "numeric_code": "724",
        "phone_code": "34",
        "capital": "Madrid",
        "region": "Europe",
        "latitude": 40.00000000,
        "longitude": -4.00000000
    },
    {
        "name": "Sri Lanka",
        "iso3": "LKA",
        "iso2": "LK",
        "numeric_code": "144",
        "phone_code": "94",
        "capital": "Colombo",
        "region": "Asia",
        "latitude": 7.00000000,
        "longitude": 81.00000000
    },
    {
        "name": "Sudan",
        "iso3": "SDN",
        "iso2": "SD",
        "numeric_code": "729",
        "phone_code": "249",
        "capital": "Khartoum",
        "region": "Africa",
        "latitude": 15.00000000,
        "longitude": 30.00000000
    },
    {
        "name": "Suriname",
        "iso3": "SUR",
        "iso2": "SR",
        "numeric_code": "740",
        "phone_code": "597",
        "capital": "Paramaribo",
        "region": "Americas",
        "latitude": 4.00000000,
        "longitude": -56.00000000
    },
    {
        "name": "Svalbard and Jan Mayen Islands",
        "iso3": "SJM",
        "iso2": "SJ",
        "numeric_code": "744",
        "phone_code": "47",
        "capital": "Longyearbyen",
        "region": "Europe",
        "latitude": 78.00000000,
        "longitude": 20.00000000
    },
    {
        "name": "Sweden",
        "iso3": "SWE",
        "iso2": "SE",
        "numeric_code": "752",
        "phone_code": "46",
        "capital": "Stockholm",
        "region": "Europe",
        "latitude": 62.00000000,
        "longitude": 15.00000000
    },
    {
        "name": "Switzerland",
        "iso3": "CHE",
        "iso2": "CH",
        "numeric_code": "756",
        "phone_code": "41",
        "capital": "Bern",
        "region": "Europe",
        "latitude": 47.00000000,
        "longitude": 8.00000000
    },
    {
        "name": "Syria",
        "iso3": "SYR",
        "iso2": "SY",
        "numeric_code": "760",
        "phone_code": "963",
        "capital": "Damascus",
        "region": "Asia",
        "latitude": 35.00000000,
        "longitude": 38.00000000
    },
    {
        "name": "Taiwan",
        "iso3": "TWN",
        "iso2": "TW",
        "numeric_code": "158",
        "phone_code": "886",
        "capital": "Taipei",
        "region": "Asia",
        "latitude": 23.50000000,
        "longitude": 121.00000000
    },
    {
        "name": "Tajikistan",
        "iso3": "TJK",
        "iso2": "TJ",
        "numeric_code": "762",
        "phone_code": "992",
        "capital": "Dushanbe",
        "region": "Asia",
        "latitude": 39.00000000,
        "longitude": 71.00000000
    },
    {
        "name": "Tanzania",
        "iso3": "TZA",
        "iso2": "TZ",
        "numeric_code": "834",
        "phone_code": "255",
        "capital": "Dodoma",
        "region": "Africa",
        "latitude": -6.00000000,
        "longitude": 35.00000000
    },
    {
        "name": "Thailand",
        "iso3": "THA",
        "iso2": "TH",
        "numeric_code": "764",
        "phone_code": "66",
        "capital": "Bangkok",
        "region": "Asia",
        "latitude": 15.00000000,
        "longitude": 100.00000000
    },
    {
        "name": "The Bahamas",
        "iso3": "BHS",
        "iso2": "BS",
        "numeric_code": "044",
        "phone_code": "+1-242",
        "capital": "Nassau",
        "region": "Americas",
        "latitude": 24.25000000,
        "longitude": -76.00000000
    },
    {
        "name": "Timor-Leste",
        "iso3": "TLS",
        "iso2": "TL",
        "numeric_code": "626",
        "phone_code": "670",
        "capital": "Dili",
        "region": "Asia",
        "latitude": -8.83333333,
        "longitude": 125.91666666
    },
    {
        "name": "Togo",
        "iso3": "TGO",
        "iso2": "TG",
        "numeric_code": "768",
        "phone_code": "228",
        "capital": "Lome",
        "region": "Africa",
        "latitude": 8.00000000,
        "longitude": 1.16666666
    },
    {
        "name": "Tokelau",
        "iso3": "TKL",
        "iso2": "TK",
        "numeric_code": "772",
        "phone_code": "690",
        "capital": "",
        "region": "Oceania",
        "latitude": -9.00000000,
        "longitude": -172.00000000
    },
    {
        "name": "Tonga",
        "iso3": "TON",
        "iso2": "TO",
        "numeric_code": "776",
        "phone_code": "676",
        "capital": "Nuku'alofa",
        "region": "Oceania",
        "latitude": -20.00000000,
        "longitude": -175.00000000
    },
    {
        "name": "Trinidad and Tobago",
        "iso3": "TTO",
        "iso2": "TT",
        "numeric_code": "780",
        "phone_code": "+1-868",
        "capital": "Port of Spain",
        "region": "Americas",
        "latitude": 11.00000000,
        "longitude": -61.00000000
    },
    {
        "name": "Tunisia",
        "iso3": "TUN",
        "iso2": "TN",
        "numeric_code": "788",
        "phone_code": "216",
        "capital": "Tunis",
        "region": "Africa",
        "latitude": 34.00000000,
        "longitude": 9.00000000
    },
    {
        "name": "Turkey",
        "iso3": "TUR",
        "iso2": "TR",
        "numeric_code": "792",
        "phone_code": "90",
        "capital": "Ankara",
        "region": "Asia",
        "latitude": 39.00000000,
        "longitude": 35.00000000
    },
    {
        "name": "Turkmenistan",
        "iso3": "TKM",
        "iso2": "TM",
        "numeric_code": "795",
        "phone_code": "993",
        "capital": "Ashgabat",
        "region": "Asia",
        "latitude": 40.00000000,
        "longitude": 60.00000000
    },
    {
        "name": "Turks and Caicos Islands",
        "iso3": "TCA",
        "iso2": "TC",
        "numeric_code": "796",
        "phone_code": "+1-649",
        "capital": "Cockburn Town",
        "region": "Americas",
        "latitude": 21.75000000,
        "longitude": -71.58333333
    },
    {
        "name": "Tuvalu",
        "iso3": "TUV",
        "iso2": "TV",
        "numeric_code": "798",
        "phone_code": "688",
        "capital": "Funafuti",
        "region": "Oceania",
        "latitude": -8.00000000,
        "longitude": 178.00000000
    },
    {
        "name": "Uganda",
        "iso3": "UGA",
        "iso2": "UG",
        "numeric_code": "800",
        "phone_code": "256",
        "capital": "Kampala",
        "region": "Africa",
        "latitude": 1.00000000,
        "longitude": 32.00000000
    },
    {
        "name": "Ukraine",
        "iso3": "UKR",
        "iso2": "UA",
        "numeric_code": "804",
        "phone_code": "380",
        "capital": "Kyiv",
        "region": "Europe",
        "latitude": 49.00000000,
        "longitude": 32.00000000
    },
    {
        "name": "United Arab Emirates",
        "iso3": "ARE",
        "iso2": "AE",
        "numeric_code": "784",
        "phone_code": "971",
        "capital": "Abu Dhabi",
        "region": "Asia",
        "latitude": 24.00000000,
        "longitude": 54.00000000
    },
    {
        "name": "United Kingdom",
        "iso3": "GBR",
        "iso2": "GB",
        "numeric_code": "826",
        "phone_code": "44",
        "capital": "London",
        "region": "Europe",
        "latitude": 54.00000000,
        "longitude": -2.00000000
    },
    {
        "name": "United States",
        "iso3": "USA",
        "iso2": "US",
        "numeric_code": "840",
        "phone_code": "1",
        "capital": "Washington",
        "region": "Americas",
        "latitude": 38.00000000,
        "longitude": -97.00000000
    },
    {
        "name": "United States Minor Outlying Islands",
        "iso3": "UMI",
        "iso2": "UM",
        "numeric_code": "581",
        "phone_code": "1",
        "capital": "",
        "region": "Americas",
        "latitude": 0.00000000,
        "longitude": 0.00000000
    },
    {
        "name": "Uruguay",
        "iso3": "URY",
        "iso2": "UY",
        "numeric_code": "858",
        "phone_code": "598",
        "capital": "Montevideo",
        "region": "Americas",
        "latitude": -33.00000000,
        "longitude": -56.00000000
    },
    {
        "name": "Uzbekistan",
        "iso3": "UZB",
        "iso2": "UZ",
        "numeric_code": "860",
        "phone_code": "998",
        "capital": "Tashkent",
        "region": "Asia",
        "latitude": 41.00000000,
        "longitude": 64.00000000
    },
    {
        "name": "Vanuatu",
        "iso3": "VUT",
        "iso2": "VU",
        "numeric_code": "548",
        "phone_code": "678",
        "capital": "Port Vila",
        "region": "Oceania",
        "latitude": -16.00000000,
        "longitude": 167.00000000
    },
    {
        "name": "Vatican City State (Holy See)",
        "iso3": "VAT",
        "iso2": "VA",
        "numeric_code": "336",
        "phone_code": "379",
        "capital": "Vatican City",
        "region": "Europe",
        "latitude": 41.90000000,
        "longitude": 12.45000000
    },
    {
        "name": "Venezuela",
        "iso3": "VEN",
        "iso2": "VE",
        "numeric_code": "862",
        "phone_code": "58",
        "capital": "Caracas",
        "region": "Americas",
        "latitude": 8.00000000,
        "longitude": -66.00000000
    },
    {
        "name": "Vietnam",
        "iso3": "VNM",
        "iso2": "VN",
        "numeric_code": "704",
        "phone_code": "84",
        "capital": "Hanoi",
        "region": "Asia",
        "latitude": 16.16666666,
        "longitude": 107.83333333
    },
    {
        "name": "Virgin Islands (British)",
        "iso3": "VGB",
        "iso2": "VG",
        "numeric_code": "092",
        "phone_code": "+1-284",
        "capital": "Road Town",
        "region": "Americas",
        "latitude": 18.43138300,
        "longitude": -64.62305000
    },
    {
        "name": "Virgin Islands (US)",
        "iso3": "VIR",
        "iso2": "VI",
        "numeric_code": "850",
        "phone_code": "+1-340",
        "capital": "Charlotte Amalie",
        "region": "Americas",
        "latitude": 18.34000000,
        "longitude": -64.93000000
    },
    {
        "name": "Wallis and Futuna Islands",
        "iso3": "WLF",
        "iso2": "WF",
        "numeric_code": "876",
        "phone_code": "681",
        "capital": "Mata Utu",
        "region": "Oceania",
        "latitude": -13.30000000,
        "longitude": -176.20000000
    },
    {
        "name": "Western Sahara",
        "iso3": "ESH",
        "iso2": "EH",
        "numeric_code": "732",
        "phone_code": "212",
        "capital": "El-Aaiun",
        "region": "Africa",
        "latitude": 24.50000000,
        "longitude": -13.00000000
    },
    {
        "name": "Yemen",
        "iso3": "YEM",
        "iso2": "YE",
        "numeric_code": "887",
        "phone_code": "967",
        "capital": "Sanaa",
        "region": "Asia",
        "latitude": 15.00000000,
        "longitude": 48.00000000
    },
    {
        "name": "Zambia",
        "iso3": "ZMB",
        "iso2": "ZM",
        "numeric_code": "894",
        "phone_code": "260",
        "capital": "Lusaka",
        "region": "Africa",
        "latitude": -15.00000000,
        "longitude": 30.00000000
    },
    {
        "name": "Zimbabwe",
        "iso3": "ZWE",
        "iso2": "ZW",
        "numeric_code": "716",
        "phone_code": "263",
        "capital": "Harare",
        "region": "Africa",
        "latitude": -20.00000000,
        "longitude": 30.00000000
    }
]
